,City,Cloudiness,Country,Date,Humidity,Lat,Lng,Max Temp,Wind Speed
0,Ixtapa,5,MX,1559155506,65,20.71,-105.21,84.0,8.05
1,Kruisfontein,9,ZA,1559156077,80,-34.0,24.73,56.14,6.67
2,Belaya Gora,47,RU,1559155545,52,68.54,146.19,48.58,18.34
3,Vaini,92,IN,1559155801,81,15.34,74.49,82.24,3.15
4,Misratah,65,LY,1559155795,71,32.38,15.09,71.08,13.02
5,Tura,0,IN,1559156078,82,25.52,90.21,79.18,5.57
6,Broome,75,GB,1559155488,87,52.47,1.45,57.0,16.11
7,Nandgaon,0,IN,1559156079,20,20.31,74.66,95.02,12.66
8,Tasiilaq,20,GL,1559156080,64,65.61,-37.64,39.2,11.41
9,New Norfolk,75,AU,1559156080,65,-42.78,147.06,44.6,8.05
10,Port Macquarie,90,AU,1559156082,62,-31.43,152.91,59.0,5.82
11,Kapit,100,MY,1559156082,95,2.02,112.94,75.22,1.66
12,Isiro,28,CD,1559156082,77,2.77,27.62,71.98,1.14
13,Smithers,20,CA,1559155836,45,54.78,-127.17,68.0,2.24
14,Sinnamary,37,GF,1559156084,80,5.38,-52.96,82.42,15.14
15,Koumac,100,NC,1559156085,74,-20.56,164.28,73.96,2.62
16,Ushuaia,75,AR,1559155770,75,-54.81,-68.31,44.6,23.04
17,Eyl,100,SO,1559156085,51,7.98,49.82,87.82,16.96
18,Maragogi,5,BR,1559156086,83,-9.01,-35.22,79.9,8.12
19,Hobart,75,AU,1559156086,65,-42.88,147.33,44.6,8.05
20,Half Moon Bay,75,US,1559155885,63,37.46,-122.43,72.0,8.05
21,Busselton,0,AU,1559155807,48,-33.64,115.35,54.0,26.24
22,Troitsko-Pechorsk,0,RU,1559156087,76,62.71,56.19,45.16,3.87
23,Rikitea,88,PF,1559155803,82,-23.12,-134.97,76.12,25.81
24,Leningradskiy,99,RU,1559156088,85,69.38,178.42,31.12,18.14
25,Hami,85,CN,1559155542,18,42.84,93.51,70.36,7.83
26,Puerto Escondido,75,MX,1559156088,70,15.86,-97.07,84.2,8.05
27,Butaritari,100,KI,1559156089,78,3.07,172.79,83.5,12.21
28,North Bend,1,US,1559156089,77,43.41,-124.22,63.0,11.41
29,Arlit,0,NE,1559156090,7,18.74,7.39,100.6,7.29
30,Ventspils,0,LV,1559156090,81,57.39,21.56,50.0,6.93
31,Sao Joao da Barra,75,BR,1559156090,48,-21.64,-41.05,87.8,6.11
32,Punta Arenas,0,CL,1559156091,65,-53.16,-70.91,44.6,13.87
33,Chuy,43,UY,1559155804,63,-33.69,-53.46,62.26,9.48
34,Marsa Matruh,75,EG,1559156091,94,31.35,27.25,71.6,11.41
35,Victoria,75,BN,1559155960,74,5.28,115.24,84.2,3.36
36,Karratha,21,AU,1559155447,31,-20.74,116.85,78.46,9.35
37,Mataura,98,NZ,1559156092,92,-46.19,168.86,46.99,4.12
38,Nantucket,90,US,1559156092,76,41.28,-70.1,55.99,10.29
39,Koudougou,66,BF,1559156093,27,12.25,-2.37,101.32,2.86
40,Bambous Virieux,75,MU,1559156093,73,-20.34,57.76,71.6,19.46
41,Vardo,75,US,1559155808,43,39.62,-77.74,91.4,9.17
42,San Jeronimo,0,PE,1559156093,38,-13.65,-73.37,60.8,10.96
43,Saskylakh,99,RU,1559155804,91,71.97,114.09,26.98,8.72
44,Port Alfred,0,ZA,1559156094,86,-33.59,26.89,56.86,14.76
45,Petropavlovka,7,RU,1559156094,63,50.61,105.32,31.48,3.0
46,Khatanga,14,RU,1559156095,90,71.98,102.47,35.44,13.33
47,Carnarvon,97,ZA,1559155803,30,-30.97,22.13,61.72,8.34
48,Avarua,17,CK,1559156097,73,-21.21,-159.78,75.2,8.05
49,Edd,1,ER,1559156097,48,13.93,41.69,91.24,5.93
50,Kapaa,1,US,1559156098,83,22.08,-159.32,82.4,4.7
51,Miyang,21,CN,1559156099,93,24.4,103.44,63.7,3.87
52,Karabulak,0,KZ,1559156099,46,44.91,78.49,63.7,4.65
53,Chokurdakh,13,RU,1559155803,91,70.62,147.9,29.86,13.15
54,Obo,98,CF,1559156099,65,5.39,26.49,77.2,1.16
55,Kassala,73,SD,1559156100,27,15.45,36.38,98.8,8.5
56,Atuona,14,PF,1559156100,77,-9.8,-139.03,82.06,13.22
57,Srednekolymsk,37,RU,1559156101,53,67.46,153.71,47.86,12.93
58,Luderitz,0,NA,1559156102,68,-26.65,15.16,61.36,11.16
59,Antofagasta,75,CL,1559156102,72,-23.65,-70.4,69.01,3.36
60,Cherskiy,0,RU,1559156103,78,68.75,161.3,37.24,6.44
61,Wahpeton,1,US,1559156104,36,46.27,-96.61,79.0,4.7
62,Arraial do Cabo,0,BR,1559156104,69,-22.97,-42.02,80.6,8.05
63,Salalah,20,OM,1559156104,79,17.01,54.1,86.0,3.36
64,Bilibino,59,RU,1559156105,87,68.06,166.44,31.12,0.69
65,Noumea,0,NC,1559156105,93,-22.28,166.46,62.6,2.24
66,Albany,75,US,1559155891,67,42.65,-73.75,69.01,3.36
67,Cockburn Town,100,TC,1559156106,77,21.46,-71.14,80.8,11.9
68,Upernavik,0,GL,1559156107,74,72.79,-56.15,35.44,10.74
69,Yellowknife,75,CA,1559155801,60,62.45,-114.38,41.0,20.8
70,Tiksi,92,RU,1559156107,96,71.64,128.87,31.84,10.36
71,Havre-Saint-Pierre,1,CA,1559156108,54,50.23,-63.6,53.6,8.05
72,Victoria,75,BN,1559156108,74,5.28,115.24,84.2,3.36
73,Jamestown,0,AU,1559155798,86,-33.21,138.6,42.1,3.67
74,Lagoa,0,PT,1559156109,56,37.14,-8.45,75.99,9.17
75,General Salgado,14,BR,1559156110,56,-20.65,-50.36,86.02,7.14
76,Turukhansk,82,RU,1559156110,89,65.8,87.96,50.92,12.82
77,Vanimo,80,PG,1559155590,77,-2.67,141.3,81.7,9.89
78,Hermanus,100,ZA,1559156110,60,-34.42,19.24,68.0,5.99
79,Guerrero Negro,51,MX,1559156111,82,27.97,-114.04,61.36,10.98
80,Cape Town,0,ZA,1559156111,67,-33.93,18.42,66.99,2.24
81,Gamba,1,CN,1559156111,49,28.28,88.52,37.78,7.99
82,Shenjiamen,0,CN,1559156112,71,29.96,122.3,64.96,5.35
83,Madimba,75,CM,1559156112,88,4.42,9.93,80.6,5.82
84,Araouane,33,ML,1559156113,9,18.9,-3.53,105.46,1.25
85,Kununurra,0,AU,1559155513,36,-15.77,128.74,64.4,5.82
86,Qaanaaq,23,GL,1559156113,66,77.48,-69.36,34.54,1.68
87,Port Elizabeth,20,US,1559156114,55,39.31,-74.98,91.0,9.17
88,Bethel,40,US,1559155569,66,60.79,-161.76,53.6,8.05
89,Ribeira Grande,20,PT,1559156114,88,38.52,-28.7,68.0,9.17
90,Vao,32,EE,1559156114,59,59.1,26.19,49.12,10.38
91,Baillif,75,GP,1559156115,62,16.02,-61.75,87.8,14.99
92,Petrolina,40,BR,1559156116,36,-9.38,-40.5,91.4,8.05
93,Ambilobe,41,MG,1559156116,80,-13.19,49.05,71.98,5.55
94,Dingle,39,PH,1559156116,67,11.0,122.67,77.38,5.14
95,Kodiak,75,US,1559156117,49,39.95,-94.76,71.6,12.75
96,Kirakira,93,SB,1559155564,82,-10.46,161.92,79.9,6.4
97,Evensk,47,RU,1559156118,72,61.92,159.24,43.54,1.72
98,Mount Gambier,31,AU,1559156118,87,-37.83,140.78,44.6,9.17
99,Diofior,0,SN,1559156119,61,14.19,-16.66,107.6,20.8
100,Jahanabad,0,IR,1559156120,38,33.86,48.17,75.2,4.7
101,College,1,US,1559156120,58,64.86,-147.8,64.99,1.25
102,Litovko,100,RU,1559156120,99,49.24,135.18,45.7,4.25
103,Sitka,39,US,1559156121,63,37.17,-99.65,66.99,13.0
104,Namatanai,97,PG,1559155802,87,-3.66,152.44,77.02,5.64
105,Flinders,0,AU,1559156122,61,-34.58,150.85,48.0,16.11
106,East London,7,ZA,1559156122,87,-33.02,27.91,56.14,9.42
107,Jurm,84,AF,1559156122,63,36.86,70.83,56.5,1.86
108,Lebu,99,ET,1559155808,50,8.96,38.73,63.7,6.38
109,Kaitangata,98,NZ,1559156123,84,-46.28,169.85,46.99,3.0
110,Morehead,20,US,1559156123,88,38.18,-83.43,68.0,9.17
111,Bredasdorp,95,ZA,1559156124,87,-34.53,20.04,68.0,3.36
112,Fairbanks,1,US,1559156122,58,64.84,-147.72,64.0,1.25
113,Portland,20,US,1559156124,63,45.52,-122.67,66.99,4.7
114,Reigate,90,GB,1559155949,100,51.24,-0.21,59.0,9.17
115,Mahebourg,75,MU,1559156125,73,-20.41,57.7,71.6,19.46
116,Iqaluit,90,CA,1559156126,93,63.75,-68.52,35.6,16.11
117,Provideniya,99,RU,1559156126,83,64.42,-173.23,37.96,2.77
118,Barrow,100,AR,1559155798,49,-38.31,-60.23,53.8,5.91
119,Tambovka,0,UA,1559156127,74,46.93,35.45,66.76,10.4
120,Santa Rosa,100,AR,1559155858,45,-36.62,-64.29,54.7,15.48
121,Pevek,0,RU,1559156129,91,69.7,170.27,28.78,5.37
122,Tuktoyaktuk,40,CA,1559155806,69,69.44,-133.03,37.4,16.11
123,Broken Hill,0,AU,1559156129,70,-31.97,141.45,37.4,4.7
124,Leh,2,IN,1559156130,28,34.16,77.58,27.88,5.1
125,Hilo,20,US,1559156131,61,19.71,-155.08,79.0,3.36
126,Matane,40,CA,1559155843,54,48.83,-67.52,60.01,12.75
127,Pouebo,100,NC,1559156132,90,-20.4,164.57,66.04,4.88
128,Estreito,20,BR,1559156132,61,-22.44,-42.8,80.6,12.75
129,Sayyan,95,YE,1559155583,47,15.17,44.32,77.02,5.82
130,Hofn,61,IS,1559156133,78,64.25,-15.21,31.3,18.32
131,Torbay,75,CA,1559156133,53,47.66,-52.73,57.99,12.75
132,Rustenburg,0,ZA,1559156133,31,-25.67,27.24,56.68,1.66
133,Porto Velho,75,BR,1559156133,83,-8.75,-63.87,77.0,5.82
134,Saint-Augustin,90,FR,1559155589,63,44.83,-0.61,64.99,11.41
135,Dzhebariki-Khaya,100,RU,1559156134,90,62.22,135.8,45.16,7.16
136,Bubaque,39,GW,1559156134,76,11.28,-15.83,79.0,24.99
137,Nikolskoye,20,RU,1559156135,54,59.7,30.79,55.0,11.18
138,Sobolevo,76,RU,1559156135,83,54.43,31.9,64.24,9.44
139,Guantanamo,40,BO,1559156136,58,-16.14,-62.05,86.0,6.93
140,Mar del Plata,0,AR,1559155884,44,-46.43,-67.52,41.38,4.21
141,Constitucion,5,MX,1559155563,6,23.99,-104.67,82.0,14.99
142,Clones,100,GB,1559156137,85,54.18,-7.23,60.01,8.01
143,Madison,90,US,1559155942,72,43.07,-89.38,68.0,4.88
144,Tecoanapa,75,MX,1559156138,70,16.99,-99.26,87.8,9.17
145,Castro,75,CL,1559156138,66,-42.48,-73.76,48.2,3.36
146,Puerto Suarez,40,BO,1559156139,66,-18.96,-57.8,89.6,4.7
147,Yerbogachen,19,RU,1559156139,89,61.28,108.01,37.78,0.54
148,Plast,95,RU,1559155569,70,54.37,60.81,58.12,9.51
149,Brae,8,GB,1559156140,63,60.4,-1.35,46.4,11.41
150,Sechura,92,PE,1559156141,77,-5.56,-80.82,71.08,12.86
151,Sola,20,FI,1559156141,82,62.78,29.36,57.2,3.36
152,Klaksvik,19,FO,1559155805,81,62.23,-6.59,42.8,12.75
153,Zharkent,2,KZ,1559156142,70,44.17,80.0,46.06,1.14
154,Thompson,75,CA,1559156142,45,55.74,-97.86,46.4,5.82
155,Pangkalanbuun,100,ID,1559156143,98,-2.68,111.62,75.58,1.83
156,Bethanien,0,NA,1559156143,21,-26.5,17.16,68.38,12.68
157,Bolitoc,86,PH,1559156144,64,15.74,119.88,86.74,5.19
158,Abonnema,95,NG,1559156144,88,4.71,6.79,76.84,5.5
159,Isangel,79,VU,1559156144,74,-19.55,169.27,76.48,9.64
160,Kungurtug,48,RU,1559156145,56,50.6,97.53,40.66,2.24
161,Fulton,90,US,1559156145,72,43.32,-76.42,64.0,3.36
162,Coquimbo,0,CL,1559156145,63,-29.95,-71.34,64.99,4.7
163,Puerto Ayora,75,EC,1559156146,69,-0.74,-90.35,80.6,19.46
164,Itarema,7,BR,1559156146,85,-2.92,-39.92,82.78,7.45
165,Sao Filipe,0,CV,1559156147,85,14.9,-24.5,75.04,14.74
166,San Andres,97,PH,1559156148,87,13.32,122.68,79.72,2.51
167,Sorland,75,NO,1559156148,93,67.67,12.69,42.8,17.22
168,Umm Kaddadah,69,SD,1559156148,22,13.6,26.69,95.2,7.09
169,Thanh Hoa,75,VN,1559156149,100,10.21,106.33,78.8,3.42
170,Naze,94,NG,1559156149,85,5.43,7.07,76.66,6.22
171,Buraydah,0,SA,1559156149,20,26.33,43.97,95.0,3.36
172,Westport,75,IE,1559155799,100,53.8,-9.52,57.0,16.11
173,Manokwari,74,ID,1559156150,82,-0.87,134.08,73.78,3.78
174,Zambezi,25,ZM,1559156150,40,-13.55,23.12,66.76,1.83
175,Northam,20,GB,1559156151,77,51.04,-4.21,64.4,9.17
176,Kazachinskoye,47,RU,1559156151,64,57.69,93.28,58.3,7.36
177,Bandar-e Lengeh,0,IR,1559156151,66,26.56,54.88,86.0,4.7
178,Qixia,100,CN,1559156152,44,37.31,120.83,71.01,12.28
179,Arani,46,IN,1559156152,75,13.33,80.08,89.6,9.17
180,Dikson,94,RU,1559156152,92,73.51,80.55,30.58,20.78
181,Prince Rupert,90,CA,1559156153,82,54.32,-130.32,55.4,4.7
182,Tautira,40,PF,1559156153,62,-17.73,-149.15,84.2,6.93
183,Watsa,94,CD,1559156154,74,3.04,29.53,72.7,2.89
184,Itacoatiara,75,BR,1559156154,79,-3.14,-58.44,84.2,4.7
185,Aklavik,90,CA,1559155804,93,68.22,-135.01,39.2,10.29
186,Guangyuan,83,CN,1559156155,92,32.43,105.86,57.22,1.92
187,Padilla,75,CO,1559156155,54,3.23,-76.31,82.4,4.7
188,Cabo San Lucas,40,MX,1559156014,57,22.89,-109.91,88.0,6.93
189,Oussouye,0,SN,1559156156,69,12.49,-16.54,87.8,13.87
190,Puerto del Rosario,0,ES,1559156157,50,28.5,-13.86,77.0,11.41
191,Airai,0,TL,1559156157,71,-8.93,125.41,73.78,9.48
192,Serdobsk,36,RU,1559156157,69,52.46,44.21,67.3,2.71
193,San Cristobal,75,EC,1559155574,60,-0.39,-78.55,68.0,11.41
194,Svetlogorsk,82,RU,1559156158,62,53.14,59.15,57.2,6.71
195,Skaudvile,8,LT,1559156158,74,55.42,22.62,48.94,7.31
196,Palmer,22,AU,1559156158,87,-34.85,139.16,46.99,5.82
197,Gushikawa,90,JP,1559156159,94,26.35,127.87,71.6,6.93
198,Bayir,75,TR,1559156159,73,37.27,28.22,72.0,10.29
199,Ayagoz,23,KZ,1559156160,41,47.96,80.43,56.86,4.21
200,Hithadhoo,79,MV,1559156161,74,-0.6,73.08,83.5,4.09
201,Verkhnyaya Toyma,25,RU,1559156161,80,62.24,45.0,59.92,5.88
202,Bourail,80,NC,1559156162,93,-21.57,165.5,63.7,3.02
203,Faanui,4,PF,1559156162,75,-16.48,-151.75,80.98,10.49
204,Uarini,40,BR,1559156163,70,-2.98,-65.16,87.8,3.36
205,Minbu,100,MM,1559156163,73,20.18,94.88,81.52,8.23
206,Athabasca,41,CA,1559156041,21,54.72,-113.29,83.32,8.84
207,Phan Thiet,100,VN,1559156164,89,10.93,108.1,78.46,2.13
208,Riyadh,0,SA,1559156164,10,24.63,46.72,95.0,4.7
209,Abha,20,SA,1559156165,68,18.22,42.5,77.0,4.7
210,Mount Isa,0,AU,1559156165,47,-20.73,139.49,57.2,11.41
211,Cidreira,76,BR,1559156165,67,-30.17,-50.22,67.12,6.51
212,Nishihara,75,JP,1559156166,77,35.74,139.53,66.99,9.17
213,Boa Vista,75,BR,1559155876,62,2.82,-60.67,86.0,9.17
214,Saint-Pierre,0,FR,1559156167,67,48.95,4.24,66.2,8.05
215,Aleppo,4,SY,1559156167,26,36.2,37.17,83.68,7.2
216,Jumla,8,NP,1559156168,42,29.28,82.18,47.68,5.21
217,Coihaique,40,CL,1559156115,60,-45.58,-72.07,50.0,6.93
218,Nalut,1,LY,1559156169,27,31.86,10.98,83.14,25.39
219,Ponta do Sol,22,BR,1559156169,57,-20.63,-46.0,79.72,2.04
220,Cap Malheureux,75,MU,1559156169,73,-19.98,57.61,71.6,19.46
221,Media Luna,0,BO,1559156170,31,-21.67,-64.63,78.8,5.82
222,Egvekinot,100,RU,1559155882,99,66.32,-179.17,32.56,2.1
223,Fort Nelson,20,CA,1559156170,27,58.81,-122.69,73.4,10.29
224,Balashov,25,RU,1559156171,71,51.54,43.17,68.0,1.41
225,Biak,98,ID,1559156171,99,-0.91,122.88,65.68,3.22
226,Mena,55,UA,1559156172,83,51.52,32.22,66.22,8.5
227,San Policarpo,92,PH,1559156172,78,12.18,125.51,82.6,3.85
228,Clyde River,20,CA,1559155586,98,70.47,-68.59,33.8,8.05
229,Severo-Kurilsk,100,RU,1559156173,93,50.68,156.12,39.58,32.26
230,Padang,100,ID,1559155583,75,-0.92,100.36,83.68,4.45
231,Winnemucca,1,US,1559156174,48,40.97,-117.74,66.2,10.29
232,Hongjiang,100,CN,1559156175,93,27.21,109.83,61.18,1.01
233,Metro,100,ID,1559156175,92,-5.11,105.31,75.58,4.59
234,Lorengau,83,PG,1559156175,84,-2.02,147.27,79.0,5.79
235,Ostrovnoy,85,RU,1559156176,72,68.05,39.51,42.64,24.09
236,Camocim,45,BR,1559156176,88,-2.9,-40.84,81.7,7.34
237,Yarmouth,75,GB,1559156178,93,50.71,-1.5,59.0,10.29
238,Barra,0,GM,1559156178,69,13.49,-16.54,77.0,11.41
239,Staryy Nadym,99,RU,1559156179,85,65.61,72.68,32.56,22.32
240,Hervey Bay,0,AU,1559156179,76,-25.3,152.85,53.01,9.17
241,Vrangel,2,RU,1559156179,84,42.73,133.08,46.6,0.83
242,Fortuna,0,ES,1559156180,40,38.18,-1.13,71.6,10.29
243,Morant Bay,75,JM,1559156180,74,17.88,-76.41,80.6,19.46
244,Tsumeb,0,NA,1559156181,35,-19.25,17.72,55.4,4.52
245,Abu Kamal,0,SY,1559156181,9,34.45,40.92,96.82,8.7
246,Hede,53,SE,1559155806,30,60.45,15.49,53.6,13.87
247,Te Anau,97,NZ,1559156182,94,-45.41,167.72,43.72,5.23
248,Osakarovka,99,KZ,1559156182,29,50.56,72.58,68.02,9.93
249,Katherine,0,AU,1559156183,39,-14.47,132.26,64.4,8.05
250,Bathsheba,40,BB,1559156086,62,13.22,-59.52,87.8,14.99
251,Dunedin,25,NZ,1559156185,74,-45.87,170.5,52.0,8.01
252,Milkovo,20,BG,1559156185,68,41.53,24.68,77.0,5.82
253,Tateyama,0,JP,1559156186,61,36.66,137.31,55.0,4.0
254,Gravdal,75,NO,1559156186,75,59.79,5.78,46.4,12.75
255,Kharp,74,RU,1559156186,96,66.82,65.8,24.1,10.31
256,Sinop,62,TR,1559156187,86,42.03,35.15,67.12,6.6
257,San Luis,100,AR,1559156188,39,-33.3,-66.34,68.38,14.09
258,Shemgang,33,BT,1559156189,85,27.22,90.66,48.58,1.97
259,Owando,52,CG,1559156189,65,-0.49,15.91,80.26,1.88
260,Nuuk,20,GL,1559156190,70,64.17,-51.74,44.6,8.05
261,Lata,3,IN,1559156190,47,30.78,78.62,33.28,10.89
262,Kodinsk,81,RU,1559156190,89,58.6,99.18,51.82,3.02
263,San Gabriel,5,US,1559156191,46,34.1,-118.11,77.0,8.05
264,Moron,96,VE,1559156192,43,10.49,-68.2,95.92,3.31
265,Souillac,90,FR,1559156192,63,45.6,-0.6,64.99,11.41
266,Aitape,99,PG,1559156192,76,-3.15,142.36,79.72,5.28
267,Yarim,100,YE,1559156193,66,14.3,44.38,71.44,5.06
268,Saint-Philippe,90,CA,1559156193,67,45.36,-73.48,62.01,9.17
269,Terrace Bay,40,CA,1559156193,31,48.78,-87.1,64.4,12.75
270,Petropavlovsk-Kamchatskiy,90,RU,1559156194,100,53.05,158.65,37.4,4.47
271,Pochutla,40,MX,1559156194,58,15.74,-96.47,89.01,4.68
272,Lompoc,1,US,1559155598,63,34.64,-120.46,73.0,6.93
273,Kalabo,1,ZM,1559156195,36,-15.0,22.67,68.56,4.05
274,Chapais,90,CA,1559156196,93,49.78,-74.86,48.2,16.11
275,Labuhan,100,ID,1559156196,93,-2.54,115.51,74.5,2.84
276,Vila Franca do Campo,40,PT,1559156197,88,37.72,-25.43,66.2,6.93
277,Collie,0,AU,1559156197,48,-33.36,116.15,52.0,7.72
278,Key West,1,US,1559156147,28,47.93,-96.78,82.0,4.54
279,Soyo,75,AO,1559156198,83,-6.13,12.37,78.8,8.05
280,Saldanha,0,PT,1559156198,28,41.42,-6.55,77.74,4.43
281,Itaituba,20,BR,1559156199,59,-4.26,-55.99,91.4,5.82
282,Ouesso,98,CG,1559156199,92,1.61,16.05,75.22,2.82
283,Beloha,0,MG,1559156199,67,-25.17,45.06,71.08,3.56
284,Daru,97,SL,1559156200,64,7.99,-10.85,86.38,3.62
285,Bure,100,NG,1559156200,32,10.52,10.33,93.76,4.45
286,Shimanovsk,79,RU,1559156201,93,52.0,127.67,43.36,5.14
287,Tucurui,89,BR,1559156202,55,-3.77,-49.67,88.54,4.74
288,Meulaboh,100,ID,1559156202,79,4.14,96.13,80.26,9.42
289,Langarud,0,IR,1559156203,93,37.2,50.15,66.2,6.13
290,Butterworth,75,MY,1559156204,94,5.4,100.37,80.6,3.36
291,Inongo,100,CD,1559156204,91,-1.93,18.29,74.14,2.21
292,Ancud,75,CL,1559156205,66,-41.87,-73.83,48.2,3.36
293,Lasa,0,CY,1559156205,36,34.92,32.53,78.8,13.87
294,Kuusamo,90,FI,1559156205,100,65.96,29.19,48.2,5.82
295,Diffa,76,NE,1559156206,26,13.32,12.61,98.26,4.68
296,Canandaigua,90,US,1559156206,71,42.88,-77.28,62.01,4.7
297,Mahibadhoo,51,MV,1559156206,79,3.78,72.97,84.94,17.52
298,Ola,100,RU,1559156207,78,59.58,151.3,39.22,3.83
299,Thinadhoo,65,MV,1559156207,75,0.53,72.93,84.94,9.91
300,Tiznit,0,MA,1559156208,85,29.7,-9.73,67.12,8.72
301,Sioux Lookout,20,CA,1559156209,24,50.1,-91.92,69.8,12.75
302,Emerald,90,AU,1559156167,59,-23.53,148.16,60.8,6.93
303,Lucapa,100,AO,1559156210,48,-8.42,20.74,77.38,1.9
304,Matagami,100,NG,1559156210,78,9.67,8.4,78.1,4.99
305,Bilma,77,NE,1559156211,12,18.69,12.92,100.24,9.31
306,Los Llanos de Aridane,0,ES,1559156211,73,28.66,-17.92,69.8,13.87
307,Bougouni,45,ML,1559156212,25,11.42,-7.49,100.24,3.65
308,Nizwa,45,OM,1559156212,22,22.93,57.53,91.06,3.04
309,San Vicente,75,SV,1559156214,94,13.64,-88.78,78.8,2.24
310,Richards Bay,5,ZA,1559156214,74,-28.77,32.06,70.18,22.91
311,Grindavik,20,IS,1559156214,57,63.84,-22.43,51.8,19.46
312,Nadym,92,RU,1559156215,82,65.53,72.51,32.74,23.82
313,Zlobin,90,HR,1559156215,72,45.29,14.65,59.0,11.41
314,Kahului,20,US,1559155993,57,20.89,-156.47,80.6,5.82
315,Hobyo,100,SO,1559156216,60,5.35,48.53,86.02,22.62
316,Onega,84,RU,1559156216,91,63.91,38.09,59.92,11.81
317,Tiverton,90,GB,1559156217,100,50.9,-3.49,63.0,17.22
318,Waingapu,10,ID,1559156218,82,-9.65,120.26,74.14,11.5
319,Khudumelapye,0,BW,1559156218,27,-23.91,24.95,61.0,8.5
320,Piacabucu,4,BR,1559156218,68,-10.41,-36.43,84.22,7.7
321,Saulkrasti,0,LV,1559156219,57,57.26,24.42,51.8,12.75
322,Praya,20,ID,1559156219,88,-8.71,116.27,75.2,4.7
323,Ilulissat,75,GL,1559156219,86,69.22,-51.1,37.4,4.7
324,Longyearbyen,75,NO,1559156220,64,78.22,15.63,37.4,21.92
325,Deputatskiy,8,RU,1559156220,76,69.3,139.9,36.16,4.36
326,Narsaq,5,GL,1559155805,18,60.91,-46.05,59.0,14.99
327,Palmital,67,BR,1559156167,74,-22.79,-50.22,81.0,3.47
328,Codrington,0,AU,1559156223,81,-28.95,153.24,62.01,10.29
329,Yukamenskoye,97,RU,1559156224,82,57.89,52.24,56.14,6.89
330,Dorado,75,PR,1559156224,78,18.46,-66.27,84.2,9.17
331,Villa Carlos Paz,75,AR,1559156224,71,-31.42,-64.5,59.0,10.29
332,La Ronge,75,CA,1559156225,55,55.1,-105.3,60.8,12.75
333,Jiangyou,99,CN,1559156225,93,31.78,104.73,53.98,2.62
334,Papara,20,BR,1559156225,58,-3.98,-38.73,86.0,14.99
335,Cayenne,75,GF,1559156222,94,4.94,-52.33,78.8,2.24
336,Presidencia Roque Saenz Pena,92,AR,1559156226,77,-26.79,-60.44,67.84,6.6
337,Vestmannaeyjar,0,IS,1559156226,62,63.44,-20.27,45.16,12.84
338,Kutum,93,SD,1559156227,18,14.2,24.66,90.16,1.32
339,Port-Gentil,40,GA,1559156228,88,-0.72,8.78,78.8,12.75
340,Komsomolskiy,76,RU,1559156228,94,67.55,63.78,23.74,9.35
341,Mackay,5,CA,1559156229,25,53.65,-115.58,77.0,12.75
342,Azua,75,DO,1559156230,70,18.45,-70.73,84.2,17.22
343,Kenai,1,US,1559156231,54,60.55,-151.26,57.99,10.29
344,Esna,20,RO,1559156232,73,45.2,27.57,71.6,8.05
345,Xiongyue,48,CN,1559156233,54,40.18,122.12,57.04,18.63
346,Kavieng,19,PG,1559156233,74,-2.57,150.8,82.6,4.61
347,Hambantota,40,LK,1559156234,94,6.12,81.12,80.6,6.93
348,Beringovskiy,5,RU,1559156234,62,63.05,179.32,41.74,0.98
349,Rosetta,0,EG,1559156235,57,31.4,30.42,77.0,8.05
350,Georgetown,40,GY,1559156236,83,6.8,-58.16,84.2,11.41
351,Anadyr,0,RU,1559155800,75,64.73,177.51,41.0,4.47
352,Jacareacanga,56,BR,1559156240,48,-6.22,-57.76,91.6,4.21
353,Ust-Tsilma,33,RU,1559156240,80,65.44,52.15,42.46,4.65
354,Geraldton,75,CA,1559156241,20,49.72,-86.95,60.8,8.05
355,Rondonopolis,51,BR,1559156241,39,-16.46,-54.64,90.7,4.23
356,Tygda,73,RU,1559156242,83,53.11,126.33,45.52,6.04
357,Ambovombe,1,MG,1559156242,79,-25.18,46.09,75.58,14.97
358,Faya,20,SA,1559156242,68,18.39,42.45,77.0,4.7
359,Acapulco,75,MX,1559156224,70,16.86,-99.88,87.8,9.17
360,Ahuimanu,90,US,1559156243,69,21.44,-157.84,80.6,6.93
361,Wichian Buri,100,TH,1559156243,76,15.66,101.11,81.7,6.42
362,Arki,5,IN,1559156244,23,31.15,76.97,87.8,4.7
363,Darhan,0,MN,1559156244,43,49.49,105.92,42.46,1.21
364,Cururupu,48,BR,1559156245,82,-1.82,-44.87,82.96,4.99
365,Karasuk,100,RU,1559156245,67,53.73,78.03,66.58,10.4
366,Shingu,21,JP,1559156246,32,33.72,135.99,45.88,4.81
367,Garowe,100,SO,1559156247,39,8.41,48.48,89.62,20.13
368,Miastko,7,PL,1559156247,52,54.0,16.98,52.0,5.55
369,Alice Springs,0,AU,1559156248,81,-23.7,133.88,44.6,8.57
370,Seydi,0,NE,1559156248,34,13.34,7.75,96.8,11.41
371,Fukue,0,JP,1559156249,62,35.03,136.69,57.2,4.7
372,Najran,0,SA,1559156249,20,17.54,44.22,86.0,6.93
373,Maraba,40,BR,1559156250,56,-5.35,-49.1,93.2,5.82
374,Sungaipenuh,100,ID,1559156251,89,-2.08,101.38,74.86,3.62
375,Presidente Epitacio,46,BR,1559156251,60,-21.76,-52.12,85.66,5.64
376,Ettaiyapuram,67,IN,1559156252,64,9.15,78.0,86.38,16.53
377,Auki,100,NG,1559156252,42,12.18,6.51,92.86,9.22
378,Caravelas,2,BR,1559156078,65,-17.73,-39.27,84.76,5.66
379,Adrar,0,DZ,1559156247,9,27.87,-0.29,100.4,5.82
380,Trairi,24,BR,1559156167,84,-3.28,-39.27,81.16,5.57
381,Kasulu,55,TZ,1559156253,90,-4.57,30.11,64.96,0.4
382,Esmeralda,90,CL,1559156254,87,-34.33,-70.9,53.6,9.17
383,Hauterive,0,FR,1559156254,34,46.09,3.45,64.4,10.29
384,Qaqortoq,5,GL,1559156255,18,60.72,-46.03,59.0,14.99
385,Ortona,75,IT,1559156256,93,42.35,14.4,60.01,10.29
386,Freeport,20,BS,1559156256,58,26.54,-78.7,87.8,11.41
387,La Paz,5,MX,1559156257,18,24.15,-110.32,82.4,5.82
388,Aguilas,0,ES,1559156257,40,37.41,-1.58,71.6,10.29
389,Ahipara,0,NZ,1559156258,100,-35.17,173.16,48.99,22.66
390,A Coruna,0,ES,1559156258,64,43.37,-8.4,73.4,8.05
391,Podgornoye,94,RU,1559156258,74,57.79,82.64,59.02,4.97
392,Bowen,40,AU,1559156259,100,-20.01,148.25,66.99,3.36
393,Coos Bay,1,US,1559156260,77,43.37,-124.22,64.0,11.41
394,Panalingaan,77,PH,1559156261,73,8.78,117.42,85.84,4.76
395,Arnstadt,0,DE,1559156261,58,50.83,10.95,59.0,3.36
396,Revda,100,RU,1559156261,82,67.94,34.55,46.96,15.86
397,Aguascalientes,40,MX,1559156073,13,21.88,-102.3,82.4,12.75
398,Racine,75,US,1559156262,77,42.73,-87.78,72.0,3.36
399,Awjilah,100,LY,1559156262,23,29.14,21.3,91.78,17.85
400,Segezha,98,RU,1559156263,87,63.74,34.31,61.72,10.92
401,Lavrentiya,100,RU,1559156264,92,65.58,-170.99,33.82,3.06
402,Talaya,0,RU,1559156264,47,55.79,84.89,60.01,8.95
403,Baft,38,IR,1559156265,41,29.23,56.61,61.72,3.38
404,Oksfjord,75,NO,1559156267,76,70.24,22.35,53.6,21.92
405,Kandrian,96,PG,1559156267,96,-6.21,149.55,73.42,3.0
406,Tilichiki,14,RU,1559156267,58,60.47,166.1,50.38,0.89
407,Port Lincoln,30,AU,1559156268,58,-34.72,135.86,56.14,17.98
408,Sakaiminato,0,JP,1559156268,62,35.55,133.23,53.6,4.7
409,Balanacan,100,PH,1559156268,74,13.53,121.87,84.58,5.08
410,Ucluelet,90,CA,1559156269,93,48.94,-125.55,71.01,5.82
411,Sisimiut,7,GL,1559156270,69,66.94,-53.67,38.68,18.84
412,Slavyanka,30,RU,1559156270,65,42.86,131.39,48.04,3.53
413,Roald,75,NO,1559156271,87,62.58,6.12,46.4,14.99
414,Kabinda,100,CD,1559156272,55,-6.14,24.49,80.26,2.68
415,Matveyev Kurgan,0,RU,1559156272,70,47.57,38.86,69.1,5.5
416,Namtsy,0,RU,1559156272,75,62.72,129.66,46.4,8.95
417,Salina,90,US,1559156273,93,36.29,-95.15,66.2,5.82
418,Lakes Entrance,90,AU,1559156273,76,-37.88,147.99,45.0,1.99
419,Muros,0,ES,1559156274,56,42.77,-9.06,82.4,9.17
420,Atambua,0,ID,1559156274,70,-9.11,124.89,81.16,20.8
421,Lodja,100,CD,1559156274,83,-3.52,23.6,73.06,1.52
422,Port Blair,100,IN,1559156045,75,11.67,92.75,86.02,11.65
423,Semporna,75,MY,1559156275,94,4.48,118.61,77.0,4.7
424,Touros,75,BR,1559156276,78,-5.2,-35.46,82.4,9.17
425,Gorin,40,US,1559156276,69,40.36,-92.02,82.99,5.82
426,Mapiripan,92,CO,1559156276,81,2.89,-72.13,82.06,2.64
427,Leticia,75,CO,1559156277,83,-4.21,-69.94,82.4,2.24
428,Rawson,41,AR,1559156277,47,-43.3,-65.11,46.42,2.59
429,Rio Gallegos,0,AR,1559155980,70,-51.62,-69.22,42.8,14.99
430,Oyem,97,GA,1559156277,96,1.6,11.57,72.16,3.53
431,Foumban,72,CM,1559156278,87,5.73,10.9,66.76,2.55
432,Luganville,75,VU,1559156278,94,-15.51,167.18,77.0,3.36
433,Keetmanshoop,0,NA,1559156278,14,-26.57,18.15,73.6,12.35
434,Kulhudhuffushi,100,MV,1559156279,77,6.62,73.07,85.3,12.88
435,Palembang,100,ID,1559156279,97,-2.99,104.76,75.94,1.79
436,Nabire,100,ID,1559156279,99,-3.36,135.5,72.34,1.05
437,Saint Anthony,20,US,1559156280,48,43.97,-111.68,64.99,4.7
438,San Patricio,8,PY,1559156280,75,-26.98,-56.83,71.8,4.94
439,Hay River,75,CA,1559156281,72,60.82,-115.79,39.2,13.87
440,Kurilsk,98,RU,1559156281,97,45.23,147.88,45.88,16.93
441,Moree,90,AU,1559156281,62,-29.46,149.84,51.8,9.17
442,Takoradi,100,GH,1559156282,90,4.89,-1.75,79.0,6.33
443,Pisco,90,PE,1559156165,30,-13.71,-76.2,71.6,4.7
444,Boke,74,GN,1559156283,52,10.95,-14.28,85.66,13.18
445,Mbandaka,100,CD,1559156283,80,0.05,18.26,76.3,2.24
446,Yar-Sale,100,RU,1559156284,87,66.83,70.83,29.86,20.89
447,Moanda,75,CD,1559156285,83,-5.93,12.38,78.8,8.05
448,Batemans Bay,0,AU,1559156285,69,-35.71,150.18,46.0,1.01
449,Kempele,79,FI,1559156285,71,64.91,25.51,50.0,12.75
450,Panjab,100,AF,1559156286,60,34.38,67.02,48.4,6.53
451,Mogadishu,100,SO,1559156096,81,2.04,45.34,79.72,10.27
452,Paita,40,PE,1559156287,290,-5.09,-81.11,62.6,14.99
453,Hamilton,75,BM,1559156287,83,32.3,-64.78,75.2,12.75
454,Saint-Francois,0,FR,1559156288,52,46.42,3.91,64.4,8.05
455,Robe,52,ET,1559156289,89,7.12,40.01,48.94,2.06
456,Vredendal,94,ZA,1559156289,65,-31.68,18.49,63.16,10.16
457,Singapore,75,MY,1559156098,79,1.29,103.85,86.0,2.26
458,Launceston,0,AU,1559156290,80,-41.43,147.14,35.01,4.7
459,Urucui,66,BR,1559156290,50,-7.23,-44.56,88.72,7.83
460,Grand-Santi,78,GF,1559156291,92,4.27,-54.38,80.98,3.76
461,Baker City,20,US,1559156291,67,44.77,-117.83,66.0,8.05
462,Marzuq,69,YE,1559156291,30,14.4,46.47,84.58,6.53
463,Trenggalek,84,ID,1559156292,94,-8.05,111.71,72.7,5.1
464,Fernandopolis,14,BR,1559156292,56,-20.28,-50.25,86.02,7.14
465,Margate,75,AU,1559156292,65,-43.03,147.26,44.6,8.05
466,Arman,100,RU,1559156293,86,59.7,150.17,44.26,1.03
467,Nakusp,5,CA,1559156293,38,50.24,-117.8,73.99,7.0
468,Zelenogorskiy,0,RU,1559156294,45,55.03,87.0,62.6,8.95
469,Bonavista,57,CA,1559156294,82,48.65,-53.11,42.01,5.01
470,Santa Cruz,1,US,1559156101,72,36.97,-122.03,75.0,5.82
471,Avera,40,US,1559156296,34,33.19,-82.53,100.4,10.29
472,Muravlenko,99,RU,1559156296,77,63.79,74.5,35.26,24.54
473,Rio Tinto,75,BR,1559156296,70,-6.8,-35.08,84.2,14.99
474,Killybegs,90,IE,1559156297,93,54.63,-8.45,55.4,16.11
475,La Plata,0,AR,1559156297,66,-34.92,-57.95,55.99,5.82
476,Alta Floresta,20,BR,1559156298,44,-9.87,-56.08,93.2,8.05
477,Santiago,90,CL,1559156173,71,-33.44,-70.65,64.99,3.36
478,Veraval,90,FR,1559156300,87,49.65,0.71,59.0,9.17
479,Husavik,0,CA,1559156301,16,50.56,-96.99,80.01,4.0
480,Poronaysk,100,RU,1559156301,89,49.22,143.1,46.96,6.33
481,Trebisacce,5,IT,1559156302,47,39.87,16.53,75.2,11.41
482,Coahuayana,100,MX,1559156304,62,18.62,-100.35,79.54,3.85
483,Baykit,98,RU,1559156304,97,61.68,96.39,41.74,5.01
484,West Wendover,75,US,1559156304,67,40.74,-114.07,62.6,8.05
485,Berdigestyakh,0,RU,1559156305,60,62.1,126.7,44.26,8.7
486,America Dourada,0,BR,1559156306,45,-11.46,-41.44,84.76,8.77
487,Yumen,12,CN,1559156306,29,40.29,97.04,65.5,12.48
488,Chillicothe,1,US,1559156306,54,39.33,-82.98,81.0,14.99
489,Great Yarmouth,75,GB,1559156307,87,52.61,1.73,57.0,16.11
490,Lerwick,75,GB,1559156307,75,60.15,-1.15,46.4,1.12
491,Lewiston,1,US,1559156061,46,46.42,-117.02,73.4,6.44
492,Tommot,79,RU,1559156308,73,58.97,126.27,43.9,3.27
493,Sistranda,40,NO,1559156308,66,63.73,8.83,48.2,17.22
494,Bermejo,94,AR,1559156309,99,-22.73,-64.34,58.3,1.83
495,Serenje,25,ZM,1559156309,76,-13.23,30.22,57.04,2.3
496,Pacific Grove,40,US,1559156310,72,36.62,-121.92,72.0,5.82
497,Hun,75,BE,1559156310,51,50.34,4.87,63.0,6.93
498,Taoudenni,96,ML,1559156310,14,22.68,-3.98,97.9,9.42
499,Bulawayo,0,ZW,1559156310,37,-20.16,28.59,60.82,11.88
500,Saint George,20,GR,1559156250,34,39.45,22.34,80.6,12.75
501,Snyder,75,US,1559156187,68,32.72,-100.92,72.0,5.82
502,Yaan,96,NG,1559156312,59,7.38,8.57,86.92,6.44
503,Banda Aceh,100,ID,1559156313,75,5.56,95.32,84.94,8.77
504,Jalu,91,LY,1559156313,22,29.03,21.55,92.32,17.49
505,Joshimath,1,IN,1559156314,21,30.57,79.57,52.0,7.81
506,Mae Hong Son,100,MM,1559156314,90,19.3,97.96,73.42,2.57
507,Kavaratti,90,IN,1559156314,75,10.57,72.64,86.2,8.37
508,Synya,95,RU,1559156315,84,65.37,58.04,39.94,3.2
509,Saint-Michel-des-Saints,39,CA,1559156316,7,46.68,-73.92,59.0,1.01
510,Inhambane,20,MZ,1559156316,88,-23.87,35.38,69.8,3.36
511,Goderich,74,CA,1559156124,83,43.74,-81.71,59.0,3.0
512,Zverinogolovskoye,30,RU,1559156317,66,54.46,64.85,59.92,5.01
513,La Palma,100,CO,1559156318,51,5.36,-74.39,87.28,3.13
514,Ayan,76,TR,1559156249,63,40.67,33.6,62.98,2.89
515,Pangody,100,RU,1559156319,89,65.85,74.49,32.38,24.47
516,Askino,92,RU,1559156320,75,56.09,56.58,55.96,3.8
517,Banamba,71,ML,1559156320,13,13.55,-7.45,103.66,1.83
518,Bambanglipuro,59,ID,1559156320,83,-7.95,110.28,80.8,16.51
519,San Jose,100,PH,1559156322,69,15.79,120.99,82.78,1.59
520,Kaitong,96,CN,1559156322,41,44.81,123.15,63.52,13.91
521,Kushiro,0,JP,1559156323,84,43.11,144.15,48.22,6.85
522,Sainte-Marie,75,CA,1559156323,55,46.45,-71.03,64.99,11.41
523,San Juan de la Maguana,75,DO,1559156173,70,18.81,-71.23,84.2,17.22
524,Belmonte,0,PT,1559156324,31,40.36,-7.35,79.0,4.0
525,Sidhi,0,IN,1559156325,8,24.41,81.88,99.7,3.98
526,Moerai,4,PF,1559156325,81,-22.43,-151.33,73.6,18.92
527,Hasaki,75,JP,1559156318,87,35.73,140.83,60.8,8.05
528,Roebourne,1,AU,1559156326,29,-20.77,117.15,75.04,11.18
529,Vanavara,100,RU,1559156326,90,60.35,102.28,43.9,2.62
530,Price,20,US,1559156327,41,39.6,-110.81,62.01,4.7
531,Ugoofaaru,74,MV,1559156327,78,5.67,73.0,85.3,16.15
532,Xining,97,CN,1559156327,72,36.62,101.77,43.36,5.79
533,Caraballeda,75,VE,1559156328,69,10.61,-66.85,86.0,2.24
534,Bhuj,0,IN,1559156328,52,23.25,69.67,88.18,14.76
535,Hermosillo,5,MX,1559156165,18,29.09,-110.96,87.01,4.7
536,Juneau,90,US,1559156329,66,58.3,-134.42,53.6,8.05
537,Marathon,40,CA,1559156329,31,48.72,-86.38,64.4,12.75
538,Lively,40,US,1559156330,73,33.6,-99.18,75.0,11.41
539,La Asuncion,75,EC,1559156331,63,-1.64,-78.74,64.4,4.7
540,Ust-Nera,97,RU,1559156331,78,64.57,143.24,44.8,3.42
541,Mayo,40,CA,1559156331,38,63.59,-135.9,60.8,2.24
542,Zainsk,0,RU,1559156340,68,55.29,52.01,64.4,4.47
543,Bar Harbor,90,US,1559156340,76,44.39,-68.2,55.99,5.82
544,Turtas,55,RU,1559156340,71,58.94,69.13,51.28,4.7
545,Imperia,20,IT,1559156341,59,43.88,8.02,68.0,3.36
546,Ligayan,4,PH,1559156341,68,4.65,119.47,86.02,4.18
547,Ponta Delgada,40,PT,1559156342,88,37.73,-25.67,66.2,6.93
